[
    {
        "location": "Bạc Liêu",
        "stations": [
            {
                "name": "BX Bạc Liêu",
                "address": "VP Bến Xe Bạc Liêu , Đường Trần Phú , Khóm 2 , P.7 , TP.Bạc Liêu",
                "phone": "02913.932.345"
            }
        ]
    },
    { "location": "Bến Tre", "stations": [{ "name": "BX ", "address": "", "phone": "" }] },
    {
        "location": "Cà Mau",
        "stations": [
            {
                "name": "BX Cà Mau",
                "address": "VP Cà Mau, QL 1A, Lý Thường Kiệt, P.6 , TP.Cà Mau",
                "phone": "02903.651.651"
            },
            {
                "name": "BX Đồng Tâm",
                "address": "Đường Quản lộ phụng hiệp, Khóm 1, Phường Tân Thành, TP Cà Mau",
                "phone": "."
            }
        ]
    },
    {
        "location": "Cần Thơ",
        "stations": [
            {
                "name": "BX Cần Thơ",
                "address": "VP Bến xe Trung Tâm Cần Thơ: P.Hưng Thạnh , Q. Cái Răng , TP.Cần Thơ",
                "phone": "02923.769.768"
            }
        ]
    },
    {
        "location": "Cao Lãnh",
        "stations": [
            { "name": "BX Cao Lãnh", "address": "QL 30, An Định xã An Bình huyện Cao Lãnh, Đồng Tháp", "phone": "." }
        ]
    },
    {
        "location": "Châu Đốc",
        "stations": [
            {
                "name": "BX Châu Đốc",
                "address": "VP BX Châu Đốc, Đường Tôn Đức Thắng , P.Vĩnh Mỹ , TP.Châu Đốc",
                "phone": "02963.565.959"
            }
        ]
    },
    {
        "location": "Hà Tiên",
        "stations": [
            {
                "name": "BX Hà Tiên",
                "address": "Khu phố 3, Đường 2/9 , P. Tô Châu , TP. Hà Tiên , Tỉnh Kiên Giang",
                "phone": "02973.88.66.88"
            }
        ]
    },
    {
        "location": "Hồng Ngự",
        "stations": [
            {
                "name": "BX Hồng Ngự",
                "address": "Tổ 3, Ấp Bình Hưng, Xã Bình Thạnh, TP.Hồng Ngự, Tỉnh Đồng Tháp” (BẾN XE ĐẠI DƯƠNG",
                "phone": "02773.898.777"
            }
        ]
    },
    {
        "location": "Long Xuyên",
        "stations": [
            {
                "name": "BX Long Xuyên",
                "address": "VP Long Xuyên: 392 Phạm Cự Lượng, Khóm Tân Phú, Phường Mỹ Quý, Tp Long Xuyên",
                "phone": "02963. 98. 99. 99"
            }
        ]
    },
    {
        "location": "Năm Căn",
        "stations": [
            {
                "name": "BX Năm Căn",
                "address": "Bến xe Năm Căn, khóm Cái Nai, thị trấn Năm Căn , Tỉnh Cà Mau - ĐT: 0780.3. 715.715",
                "phone": "0290.3.715.715"
            }
        ]
    },
    {
        "location": "Rạch giá",
        "stations": [{ "name": "BX Rạch Sỏi", "address": "12 Mai Thi Hong Hanh", "phone": "02973 898.567" }]
    },
    {
        "location": "Sa Đéc",
        "stations": [
            {
                "name": "BX Sa Đéc",
                "address": "VP Sa Đéc, 149/8 Khóm Hòa Khánh , P.2 , TX.Sa Đéc,Đồng Tháp",
                "phone": "02773.774.993"
            }
        ]
    },
    {
        "location": "Sóc Trăng",
        "stations": [
            {
                "name": "BX Sóc Trăng",
                "address": "VP Sóc Trăng, 38 Lê Duẩn , P.3 , TP.Sóc Trăng",
                "phone": "02993. 868.868"
            }
        ]
    },
    {
        "location": "Thốt Nốt",
        "stations": [{ "name": "BX Ô Môn", "address": "Phường Châu Văn Liêm, Ô Môn, Cần Thơ", "phone": "." }]
    },
    {
        "location": "Trà Ôn",
        "stations": [
            {
                "name": "BX Bình Minh",
                "address": "VP Bình Minh, Khóm 2 , P.Thành Phước , TX.Bình Minh , tỉnh Vĩnh Long",
                "phone": "02703.742.999"
            }
        ]
    },
    {
        "location": "Trà Vinh",
        "stations": [{ "name": "BX Trà Vinh", "address": "Bến Xe Trà Vinh", "phone": "0294.3 747.474" }]
    },
    {
        "location": "Tri Tôn",
        "stations": [
            {
                "name": "BX Tri Tôn",
                "address": "Đường 3/2, Thị trấn Tri Tôn, Huyện Tri Tôn, Tỉnh An Giang",
                "phone": "(0296)3 874 874"
            }
        ]
    },
    {
        "location": "Vị Thanh",
        "stations": [
            {
                "name": "BX Vị Thanh",
                "address": "VP Vị Thanh, Trần Hưng Đạo nối dài , KV3 , Vị Thanh Hậu Giang",
                "phone": "02933.583.583"
            }
        ]
    },
    {
        "location": "Vĩnh Châu",
        "stations": [
            {
                "name": "BX Vĩnh Châu",
                "address": "đường Phan Thanh Giản,Phường 1,TX Vĩnh Châu,Tỉnh Sóc Trăng.",
                "phone": "02993615 615 - 86 5555."
            }
        ]
    }
]